,City,Country,Date,Latitude,Longitude,Max Temperature,Humidity,Cloudiness,Wind Speed
0,tautira,PF,1596608887,-17.73,-149.15,26.0,69,20,2.1
1,butaritari,KI,1596608887,3.07,172.79,28.64,77,87,6.7
2,dikson,RU,1596608888,73.51,80.55,8.29,91,47,9.7
3,ushuaia,AR,1596608865,-54.8,-68.3,9.0,39,40,2.1
4,asau,RO,1596608888,46.43,26.4,21.11,68,0,3.1
5,bredasdorp,ZA,1596608888,-34.53,20.04,2.0,93,45,2.1
6,hermanus,ZA,1596608889,-34.42,19.23,2.78,96,1,3.53
7,tabou,CI,1596608890,4.42,-7.35,21.51,83,30,2.2
8,saint-francois,FR,1596608891,46.42,3.91,12.0,87,0,0.43
9,mecca,SA,1596608688,21.43,39.83,31.34,52,11,3.6
10,ulladulla,AU,1596608891,-35.35,150.47,13.33,35,0,8.2
11,banepa,NP,1596608892,27.63,85.52,28.0,74,40,1.0
12,arraial do cabo,BR,1596608892,-22.84,-46.65,14.0,76,0,7.2
13,pochutla,MX,1596608892,15.74,-96.47,26.11,91,98,1.87
14,chuy,UY,1596608892,-33.7,-53.46,13.11,86,52,3.05
15,punta arenas,PH,1596608893,8.99,125.34,29.35,74,60,2.02
16,tougue,GN,1596608893,11.47,-11.6,18.93,99,100,1.07
17,xichang,CN,1596608894,27.9,102.26,29.76,53,44,0.91
18,talnakh,RU,1596608894,69.49,88.4,19.0,59,89,3.0
19,luganville,VU,1596608894,-15.53,167.17,27.0,74,20,1.0
20,mar del plata,ES,1596608895,43.4,-4.01,18.89,100,34,2.42
21,albany,US,1596608777,42.6,-73.97,20.56,90,20,1.73
22,liverpool,GB,1596608896,53.41,-2.98,18.33,82,40,4.1
23,hithadhoo,MV,1596608896,-0.6,73.08,27.86,76,100,6.11
24,yellowknife,CA,1596608773,62.46,-114.35,15.0,100,75,4.1
25,khani,GE,1596608896,41.96,42.96,24.0,73,1,1.5
26,honiara,SB,1596608605,-9.43,159.95,29.0,70,20,4.1
27,fairbanks,US,1596608829,64.84,-147.72,16.0,87,20,1.5
28,skaerbaek,DK,1596608897,55.16,8.77,18.0,77,99,5.7
29,ivankiv,UA,1596608897,50.94,29.89,23.0,56,32,2.0
30,riyadh,SA,1596608849,24.69,46.72,37.0,12,0,5.7
31,rikitea,PF,1596608898,-23.12,-134.97,22.86,89,94,5.22
32,georgetown,MY,1596608899,5.41,100.34,32.78,66,20,4.1
33,beyneu,KZ,1596608899,45.32,55.2,25.84,36,24,5.5
34,hami,CN,1596608899,42.8,93.45,38.88,12,1,4.35
35,coihaique,CL,1596608899,-45.58,-72.07,-2.0,92,88,1.17
36,nantucket,US,1596608901,41.28,-70.1,22.22,94,1,5.7
37,laguna,US,1596608902,38.42,-121.42,20.0,72,1,5.7
38,kidal,ML,1596608657,18.44,1.41,26.55,67,21,3.32
39,fallon,US,1596608795,39.47,-118.78,27.0,19,1,4.6
40,busselton,AU,1596608902,-33.65,115.33,18.33,45,7,4.18
41,lata,PT,1596608903,40.16,-8.33,16.11,98,17,1.34
42,belaya gora,UA,1596608903,49.03,25.77,18.68,69,54,3.11
43,mataura,NZ,1596608903,-46.19,168.86,9.44,88,21,1.48
44,beinamar,TD,1596608904,8.67,15.38,21.61,89,61,2.21
45,effingham,US,1596608904,32.37,-81.33,27.0,94,20,1.5
46,konin,PL,1596608915,52.22,18.25,14.45,72,44,1.4
47,sapulpa,US,1596608833,36.0,-96.11,22.0,56,1,2.1
48,tura,IN,1596608919,25.52,90.22,31.62,72,83,2.48
49,monrovia,LR,1596608919,6.3,-10.8,22.87,76,81,2.45
50,port elizabeth,CD,1596608920,-7.03,29.76,23.34,56,77,3.6
51,faanui,PF,1596608922,-16.48,-151.75,25.56,75,8,5.41
52,kapaa,US,1596608823,22.08,-159.32,27.0,69,75,7.7
53,nikolskoye,RU,1596608923,59.7,30.79,18.0,88,75,3.0
54,cape town,CL,1596608923,-36.41,-71.9,12.78,93,75,4.1
55,gazanjyk,TM,1596608924,39.24,55.52,30.03,20,39,3.83
56,vao,NC,1596608926,-22.67,167.48,20.08,63,72,2.82
57,kahului,US,1596608656,20.89,-156.47,27.0,61,1,6.7
58,yulara,AU,1596608928,-25.24,130.99,23.0,33,75,5.1
59,tuktoyaktuk,CA,1596608929,69.45,-133.04,9.0,87,90,3.1
60,port alfred,CD,1596608929,-7.03,29.76,23.34,56,77,3.6
61,bluff,NZ,1596608930,-46.6,168.33,9.44,88,48,3.07
62,puerto ayora,ES,1596608930,36.59,-6.23,23.33,88,0,1.0
63,touros,BR,1596608930,-5.2,-35.46,21.0,88,40,2.1
64,krutinka,RU,1596608930,56.01,71.51,24.38,50,5,4.54
65,vaini,TO,1596608930,-21.2,-175.2,20.0,82,20,2.6
66,buala,SB,1596608931,-8.14,159.59,28.95,74,28,3.94
67,saint-philippe,RE,1596608931,-21.36,55.77,22.78,64,49,6.2
68,bethel,US,1596608946,41.37,-73.41,21.0,83,1,2.6
69,pevek,RU,1596608946,69.7,170.31,0.48,98,100,6.0
70,smyshlyayevka,RU,1596608947,53.24,50.39,23.0,73,20,5.0
71,victoria,HK,1596608947,22.29,114.16,30.0,74,100,5.36
72,mezhdurechensk,RU,1596608947,53.69,88.06,27.56,35,30,1.19
73,derzhavinsk,KZ,1596608947,51.1,66.32,28.1,38,47,8.61
74,lavrentiya,RU,1596608949,65.58,-171.0,7.73,83,67,1.57
75,ipala,GT,1596608950,14.62,-89.62,19.85,94,95,1.65
76,novobirilyussy,RU,1596608950,56.95,90.67,24.7,40,1,3.44
77,naze,JP,1596608952,28.37,129.48,32.0,75,40,4.6
78,kulhudhuffushi,MV,1596608952,6.62,73.07,28.13,80,100,8.78
79,jamestown,US,1596608953,42.1,-79.24,16.67,87,90,3.6
80,norman wells,US,1596608772,35.22,-97.44,21.11,64,1,3.6
81,leningradskiy,RU,1596608957,69.38,178.42,2.09,89,99,6.23
82,kloulklubed,PW,1596608957,7.04,134.26,24.0,94,90,3.6
83,rocha,UY,1596608957,-34.48,-54.33,13.53,91,69,3.55
84,petropavlovsk-kamchatskiy,RU,1596608958,53.05,158.65,19.0,63,7,5.0
85,cap malheureux,FR,1596608958,49.27,-1.21,16.67,93,0,4.6
86,marsh harbour,GB,1596608959,53.65,-1.81,16.67,91,83,3.58
87,nanyamba,TZ,1596608959,-10.68,39.83,22.0,88,59,5.1
88,lebu,CL,1596608959,-37.62,-73.65,9.8,89,33,4.1
89,new norfolk,LR,1596608955,6.65,-10.59,18.91,93,88,0.41
90,hobart,AU,1596608743,-42.88,147.33,7.78,75,75,8.2
91,kaeo,NZ,1596608960,-35.1,173.78,13.89,3,85,0.89
92,atuona,PF,1596608960,-9.8,-139.03,26.09,77,12,9.38
93,pinega,RU,1596608960,64.7,43.39,19.8,69,99,3.68
94,zalantun,CN,1596608961,48.0,122.72,23.59,70,71,4.49
95,livingstonia,MW,1596608961,-10.61,34.11,18.02,65,14,1.32
96,barrow,US,1596608961,71.29,-156.79,7.0,81,90,4.1
97,villach,AT,1596608961,46.61,13.86,15.0,87,75,1.5
98,comodoro rivadavia,BR,1596608963,-13.66,-59.79,20.16,43,0,1.94
99,qaqortoq,GL,1596608963,60.72,-46.03,6.0,81,40,2.1
100,west bay,US,1596608919,31.8,-97.09,28.0,58,1,2.6
101,lorengau,PG,1596608964,-2.02,147.27,28.42,79,51,5.73
102,chokwe,MZ,1596608964,-24.53,32.98,20.01,75,5,4.23
103,sao filipe,IN,1596608964,20.51,76.21,28.06,78,93,4.91
104,grindavik,IS,1596608964,63.84,-22.43,9.0,100,90,5.7
105,arraias,BR,1596608965,-12.93,-46.94,16.18,58,79,3.1
106,port-cartier,CA,1596608965,50.03,-66.87,17.22,87,75,3.6
107,tucurui,BR,1596608960,-3.77,-49.67,23.98,60,26,1.14
108,namatanai,PG,1596608966,-3.67,152.43,28.36,77,73,4.45
109,barranca,PE,1596608967,-10.75,-77.77,13.88,91,31,3.0
110,souillac,MU,1596608967,-20.52,57.52,20.0,77,40,3.1
111,guilin,CN,1596608968,25.28,110.29,32.0,62,40,2.0
112,nanortalik,GL,1596608979,60.14,-45.24,6.25,86,15,2.94
113,acapulco,MX,1596608969,16.86,-99.89,26.61,88,91,3.16
114,saint-pierre,RE,1596608980,-21.34,55.48,22.78,64,50,6.2
115,foundiougne,SN,1596608981,14.13,-16.47,26.54,82,45,4.22
116,khandbari,NP,1596608982,27.37,87.2,30.87,57,90,1.77
117,ancud,CL,1596608983,-41.87,-73.82,4.44,100,40,3.6
118,erenhot,CN,1596608984,43.65,111.98,29.69,27,6,5.13
119,eston,CA,1596608985,51.15,-108.75,15.56,82,5,2.1
120,codrington,AU,1596608985,-38.27,141.97,9.21,71,90,6.24
121,bonthe,SL,1596608985,7.53,-12.51,23.64,76,69,2.46
122,fortuna,US,1596608986,40.6,-124.16,15.56,89,98,1.79
123,cabo san lucas,BR,1596608986,-8.28,-35.03,24.0,73,40,6.2
124,thompson,CA,1596608986,55.74,-97.86,19.0,72,75,2.1
125,maniitsoq,GL,1596608986,65.42,-52.9,6.88,87,100,4.92
126,kysyl-syr,RU,1596608988,63.9,122.76,26.73,35,100,0.54
127,khor,RU,1596608988,47.89,134.95,16.57,95,100,5.7
128,waingapu,ID,1596608988,-9.66,120.26,27.8,59,87,5.87
129,hambantota,LK,1596608989,6.12,81.12,30.0,84,40,5.7
130,upernavik,GL,1596608989,72.79,-56.15,3.1,76,25,2.83
131,kruisfontein,ZA,1596608989,-34.0,24.73,10.56,80,93,0.51
132,ongandjera,NA,1596608989,-17.88,15.07,11.66,40,0,0.43
133,pisco,PE,1596608989,-13.7,-76.22,16.0,82,90,4.6
134,tiksi,RU,1596608990,71.69,128.87,18.0,44,0,1.74
135,ostrovnoy,RU,1596608991,68.05,39.51,17.8,64,94,7.28
136,andros town,GR,1596608823,37.83,24.93,28.0,44,0,6.2
137,mitu,CO,1596608991,1.2,-70.17,21.19,98,27,0.95
138,vestmannaeyjar,IS,1596608993,63.44,-20.27,11.54,93,100,9.49
139,brae,GB,1596608995,60.4,-1.35,13.0,93,90,6.2
140,benguela,AO,1596608996,-12.58,13.41,17.0,88,25,1.69
141,dhidhdhoo,MV,1596608996,6.88,73.1,28.25,80,100,8.66
142,cidreira,BR,1596609008,-30.18,-50.21,14.69,91,0,4.94
143,shubarshi,KZ,1596609008,48.59,57.19,23.27,50,82,5.48
144,avarua,CK,1596609008,-21.21,-159.78,23.0,100,100,5.1
145,burgeo,CA,1596609010,47.62,-57.62,13.24,84,76,3.08
146,iqaluit,CA,1596609010,63.75,-68.51,14.0,82,75,3.6
147,marienburg,PL,1596609013,54.04,19.03,18.89,100,0,1.78
148,sao joao da barra,IN,1596609014,20.51,76.21,29.1,72,71,4.28
149,esperance,AU,1596609014,-33.87,121.9,13.0,100,75,7.7
150,narsaq,GL,1596609014,60.92,-46.05,6.0,81,40,2.1
151,ontario,US,1596608788,34.06,-117.65,20.0,77,20,4.6
152,east london,IS,1596609015,65.0,-15.0,12.0,66,75,2.6
153,vestmanna,FO,1596609015,62.16,-7.17,11.0,100,100,4.6
154,port lincoln,CD,1596608920,-7.03,29.76,23.34,56,77,3.6
155,yining,CN,1596609019,29.04,114.56,35.54,51,27,2.55
156,cherskiy,RU,1596609019,68.75,161.3,5.99,72,100,4.38
157,mayo,US,1596609019,38.89,-76.51,23.0,100,1,2.1
158,hilo,US,1596609019,19.73,-155.09,24.0,73,90,2.6
159,ribeira grande,ES,1596609022,42.75,-8.44,17.22,93,20,1.5
160,tabuk,PH,1596609022,17.42,121.44,31.32,64,100,2.24
161,torbay,CA,1596609023,47.67,-52.73,12.78,93,90,5.1
162,kodiak,US,1596609024,57.79,-152.41,16.0,63,1,5.7
163,guerrero negro,MX,1596609024,17.67,-100.0,20.15,79,100,2.0
164,teahupoo,PF,1596609026,-17.83,-149.27,26.0,69,20,2.1
165,linjiang,CN,1596609026,41.81,126.91,27.29,71,99,2.55
166,kaitangata,NZ,1596609026,-46.28,169.85,9.44,72,0,2.36
167,ponta do sol,PT,1596609027,38.73,-28.27,20.51,99,10,4.16
168,qaanaaq,GL,1596609028,77.48,-69.36,-1.54,86,2,1.96
169,bosaso,SO,1596609033,11.28,49.18,36.0,34,71,6.2
170,san antonio,ML,1596609002,13.3,-4.9,23.07,84,85,6.17
171,jinchang,CN,1596609049,38.5,102.17,31.46,29,100,6.89
172,makokou,GA,1596609049,0.57,12.86,21.75,83,61,2.09
173,jerantut,MY,1596608964,3.94,102.36,33.16,51,99,1.04
174,mahebourg,MU,1596609052,-20.41,57.7,20.0,77,40,3.1
175,corinto,GR,1596609052,37.94,22.96,27.22,61,0,3.58
176,betim,BR,1596609053,-19.97,-44.2,12.0,81,0,3.1
177,tasiilaq,GL,1596609053,65.61,-37.64,4.0,100,2,1.96
178,kavieng,PG,1596609054,-2.57,150.8,28.39,79,100,6.93
179,itaituba,BR,1596609054,-4.28,-55.98,23.39,71,16,0.69
180,chokurdakh,RU,1596609054,70.63,147.92,16.47,51,10,1.36
181,bambous virieux,MU,1596609055,-20.26,57.41,22.22,77,40,3.1
182,novoagansk,RU,1596609056,61.94,76.66,31.05,43,16,1.56
183,belyy yar,RU,1596609057,55.84,32.94,20.86,66,100,4.23
184,mount isa,GB,1596609057,53.66,-1.85,16.67,91,96,3.58
185,san patricio,ML,1596609002,13.3,-4.9,23.07,84,85,6.17
186,forest grove,US,1596609057,37.36,-79.29,22.22,94,20,1.57
187,manacor,ES,1596609058,39.57,3.21,22.0,83,20,0.5
188,anloga,GH,1596609058,5.79,0.9,23.0,88,20,5.1
189,bintulu,MY,1596608945,3.17,113.03,26.67,94,40,3.1
190,ust-nera,RU,1596609058,64.57,143.2,20.12,34,88,1.27
191,airai,TL,1596609059,-8.93,125.41,22.34,58,29,0.86
192,ahipara,NZ,1596609060,-35.17,173.17,12.95,86,98,1.3
193,muros,ES,1596609061,42.78,-9.06,17.22,88,19,0.45
194,tuatapere,NZ,1596609061,-46.13,167.68,8.89,88,58,1.41
195,doha,QA,1596608887,25.29,51.53,40.0,28,11,5.1
196,roma,US,1596609061,43.21,-75.46,20.0,88,20,2.24
197,kavaratti,IN,1596609084,10.57,72.64,30.0,74,90,6.2
198,villamontes,BO,1596609084,-21.25,-63.5,18.87,49,0,1.76
199,khatanga,RU,1596609084,71.97,102.5,17.67,86,100,5.33
200,san lorenzo,ML,1596609085,13.3,-4.9,23.07,84,85,6.17
201,mogadishu,SO,1596609108,2.04,45.34,26.0,69,75,7.7
202,lishui,CN,1596609108,28.46,119.91,34.12,54,73,3.54
203,cervo,ES,1596609120,43.67,-7.41,16.67,1,34,1.92
204,moree,AU,1596609121,-29.47,149.85,17.0,20,0,4.6
205,saldanha,ZA,1596609132,-33.01,17.94,3.0,60,0,2.1
206,saskylakh,RU,1596609135,71.92,114.08,27.38,36,60,5.14
207,okha,RU,1596609123,53.57,142.95,14.65,75,100,5.06
208,ketchikan,US,1596609136,55.34,-131.65,15.0,100,90,7.2
209,soyo,AO,1596609137,-6.13,12.37,23.0,88,40,1.59
210,bilma,NE,1596609154,18.69,12.92,32.9,41,15,5.93
211,mana,GF,1596609154,5.66,-53.78,24.55,88,8,3.08
212,san rafael del sur,ML,1596609085,13.3,-4.9,23.07,84,85,6.17
213,launceston,AU,1596609083,-41.45,147.17,8.33,85,40,7.7
214,tiznit,MA,1596609166,29.58,-9.5,22.75,44,41,0.68
215,lagoa,PT,1596609168,39.05,-27.98,22.34,93,16,3.17
216,lazaro cardenas,DO,1596609169,19.46,-71.33,22.22,90,34,0.45
217,aykhal,RU,1596609169,66.0,111.5,25.0,29,40,2.0
218,sola,VU,1596609170,-13.88,167.55,24.74,84,1,8.71
219,dunedin,NZ,1596609170,-45.87,170.5,8.33,90,16,3.58
220,longyearbyen,SJ,1596609170,78.22,15.64,8.0,93,75,1.5
221,dingle,PH,1596609170,11.0,122.67,28.27,83,100,3.64
222,hovd,MN,1596609173,48.01,91.64,21.74,43,61,3.44
223,rio grande,GR,1596609173,38.3,21.78,28.0,65,40,0.57
224,beringovskiy,RU,1596609174,63.05,179.32,12.13,72,16,2.88
225,grand-santi,GF,1596608946,4.25,-54.38,21.81,96,29,0.65
226,nova odesa,BR,1596609176,-5.53,-46.7,21.21,57,0,2.51
227,grand gaube,US,1596609178,38.88,-109.5,28.0,12,1,1.5
228,yongchang,CN,1596609179,30.04,119.73,31.67,71,100,3.04
229,oswego,US,1596609179,43.45,-76.15,20.0,88,90,3.1
230,palauig,PH,1596609180,15.44,119.9,31.0,66,100,2.17
231,anadyr,RU,1596609182,64.75,177.48,15.0,51,40,4.0
232,cockburn town,AU,1596609185,-32.08,141.0,12.0,27,12,4.1
233,severo-kurilsk,RU,1596609186,50.68,156.12,12.55,86,100,0.74
234,bengkulu,ID,1596608944,-3.8,102.27,27.29,81,100,5.69
235,bereda,ES,1596609187,43.27,-7.54,12.78,100,100,0.45
236,boyolangu,ID,1596609189,-8.12,111.89,26.71,70,66,4.91
237,canon city,FR,1596609189,49.07,-0.09,15.0,77,0,3.6
238,cabedelo,BR,1596609175,-6.98,-34.83,21.0,94,75,3.6
239,caravelas,BR,1596609191,-17.71,-39.25,20.41,81,25,4.13
240,buritizeiro,BR,1596609193,-17.35,-44.96,12.2,88,0,1.14
241,eurajoki,FI,1596609194,61.2,21.73,17.0,77,0,1.5
242,inirida,CO,1596609194,3.87,-67.92,22.02,95,99,0.38
243,sao paulo de olivenca,IN,1596608964,20.51,76.21,28.06,78,93,4.91
244,carnarvon,AU,1596609217,-24.87,113.63,20.0,64,0,9.3
245,itoman,JP,1596609238,26.12,127.67,33.0,59,20,4.6
246,praia,CV,1596609239,14.92,-23.51,26.0,78,40,2.1
247,bilibino,RU,1596609126,68.05,166.44,9.51,58,100,3.05
248,cocobeach,GA,1596609241,1.0,9.58,24.0,94,40,2.6
249,krasnokholmskiy,RU,1596609241,55.99,55.05,20.71,87,95,6.02
250,tual,ID,1596609243,-5.67,132.75,25.61,83,41,4.59
251,masyaf,SY,1596609246,35.07,36.34,30.0,70,75,5.1
252,cayenne,GF,1596609247,4.93,-52.33,23.0,100,5,3.61
253,stolin,BY,1596609250,51.89,26.85,21.57,68,99,1.12
254,boa vista,CM,1596609250,4.43,8.97,23.96,85,73,2.27
255,faya,SA,1596609250,18.39,42.45,22.0,68,68,3.2
256,russellville,US,1596609251,35.28,-93.13,22.0,60,1,3.1
257,kargil,IN,1596609251,34.57,76.1,20.07,23,0,1.05
258,pangnirtung,CA,1596609251,66.15,-65.71,10.48,84,100,0.67
259,thabazimbi,ZA,1596608995,-24.59,27.41,10.56,53,0,0.45
260,chibombo,ZM,1596609256,-14.66,28.07,20.98,46,0,3.46
261,bay roberts,US,1596609257,43.73,-84.02,13.33,100,1,3.1
262,sitka,US,1596609258,57.05,-135.33,13.0,87,90,9.3
263,jiutai,CN,1596609258,44.15,125.83,30.0,42,20,5.0
264,kassala,SD,1596609258,15.45,36.4,23.86,78,100,6.13
265,mys shmidta,RU,1596609259,62.06,48.62,23.04,59,100,3.61
266,beloha,MG,1596609259,-25.17,45.05,23.58,48,0,3.23
267,bafata,GW,1596609260,12.17,-14.75,23.13,97,100,2.69
268,bongaree,AU,1596609260,-27.08,153.16,22.78,75,15,4.14
269,iskateley,RU,1596609260,67.68,53.15,19.64,61,100,7.16
270,krasnyy oktyabr,RU,1596609260,54.57,31.43,19.7,78,100,4.54
271,mapiripan,CO,1596609261,2.89,-72.13,21.64,91,96,1.58
272,nawa,IN,1596609261,27.02,75.0,39.95,28,68,6.76
273,varniai,LT,1596609262,55.74,22.36,16.0,93,75,2.6
274,hasaki,JP,1596609263,35.73,140.83,36.11,74,20,5.1
275,college,US,1596608969,64.86,-147.8,16.0,82,75,1.15
276,japura,ID,1596609263,-0.32,102.35,34.19,44,97,1.52
277,filadelfia,US,1596609149,39.95,-75.16,23.89,83,90,3.1
278,semey,KZ,1596609264,50.41,80.23,30.0,33,0,7.0
279,tigil,RU,1596609264,57.8,158.67,15.71,53,0,4.54
280,constitucion,CL,1596609266,-35.33,-72.42,12.65,94,98,0.74
281,deputatskiy,RU,1596609267,69.3,139.9,19.61,28,74,4.53
282,kalabagh,PK,1596609267,32.97,71.56,39.63,28,0,4.06
283,namibe,AO,1596609267,-15.2,12.15,19.69,82,31,1.89
284,lindi,TZ,1596609267,-10.0,39.72,22.0,88,4,5.1
285,padang,ID,1596609267,-0.95,100.35,30.17,63,100,2.47
286,svetlogorsk,BY,1596609273,52.63,29.73,22.37,64,66,3.07
287,oakley,US,1596609273,38.0,-121.71,17.0,77,1,17.5
288,necochea,AR,1596609286,-38.55,-58.74,16.11,87,100,6.26
289,vanino,RU,1596609287,49.09,140.25,12.95,97,100,1.97
290,adrar,MR,1596609287,20.5,-10.07,30.87,51,56,10.39
291,castro,BR,1596609287,-24.79,-50.01,8.66,97,38,2.12
292,neiafu,TO,1596609287,-18.65,-173.98,24.0,88,75,3.1
293,bur gabo,DK,1596609288,56.37,8.43,14.44,91,100,0.45
294,kenora,CA,1596609066,49.82,-94.43,18.0,72,40,1.5
295,klaksvik,FO,1596609294,62.23,-6.59,12.0,100,100,4.6
296,alugan,PH,1596609294,12.22,125.48,28.95,74,31,3.16
297,shiyan,CN,1596609295,32.65,110.78,30.0,30,53,2.93
298,samarai,PG,1596609295,-10.62,150.67,25.35,82,33,5.52
299,redmond,US,1596609041,47.67,-122.12,20.0,81,1,1.24
300,mushie,CD,1596609295,-3.02,16.9,26.7,54,39,2.63
301,taoudenni,ML,1596609295,22.68,-3.98,36.67,13,9,0.62
302,aswan,EG,1596609296,24.09,32.91,39.07,16,0,3.47
303,impfondo,CG,1596609296,1.64,18.07,21.59,95,100,0.06
304,micheweni,TZ,1596609296,-4.97,39.83,25.69,76,72,6.17
305,yambio,SS,1596609297,4.57,28.4,20.98,93,100,0.97
306,oussouye,SN,1596609297,12.48,-16.55,25.29,88,99,4.0
307,san vicente,ML,1596609297,13.3,-4.9,23.07,84,85,6.17
308,benjamin constant,US,1596609298,40.1,-111.73,23.33,35,0,1.81
309,prabumulih,ID,1596609298,-3.45,104.25,25.08,91,100,0.43
310,tateyama,JP,1596609298,34.98,139.87,30.56,74,20,5.7
311,nouadhibou,MR,1596609299,20.93,-17.03,21.0,94,75,3.6
312,sorong,ID,1596609299,-0.88,131.25,29.61,73,99,5.9
313,fort nelson,NL,1596609299,52.65,6.39,17.22,71,97,0.45
314,nome,US,1596609299,64.5,-165.41,13.33,66,75,2.1
315,kamsack,CA,1596609300,51.57,-101.9,17.0,88,90,1.0
316,clyde river,US,1596609300,41.3,-82.98,15.0,86,0,0.45
317,sioux lookout,US,1596609302,42.73,-96.23,17.22,88,75,2.6
318,chenzhou,CN,1596609302,25.8,113.03,32.58,61,87,3.24
319,alamos,MX,1596609303,27.02,-108.93,31.11,66,2,1.34
320,atar,MR,1596609304,20.52,-13.05,27.25,66,0,5.11
321,huarmey,PE,1596609304,-10.07,-78.15,14.57,86,58,3.63
322,tonekabon,IR,1596609305,36.82,50.87,25.0,73,75,3.1
323,haines junction,US,1596609305,59.23,-135.44,13.0,93,90,2.6
324,markova,UA,1596609305,48.68,24.41,19.0,88,75,2.0
325,san policarpo,ML,1596609305,13.3,-4.9,23.07,84,85,6.17
326,hirara,JP,1596609070,24.8,125.28,32.0,70,75,5.1
327,cordoba,AR,1596609207,-31.41,-64.18,23.0,40,0,6.7
328,alice springs,US,1596609306,27.75,-98.07,25.0,94,1,1.5
329,columbus,US,1596609307,39.96,-83.0,16.0,93,1,1.5
330,arlit,NE,1596609307,18.74,7.39,32.11,40,53,5.97
331,lock haven,US,1596609307,40.27,-82.61,13.89,100,1,2.25
332,flin flon,FR,1596609307,48.5,6.66,17.0,77,0,1.0
333,aripuana,BR,1596609307,-9.17,-60.63,22.43,57,0,0.89
334,diffa,NE,1596609319,13.32,12.61,26.37,69,96,7.85
335,parga,GR,1596609320,39.28,20.4,26.0,78,75,5.7
336,tadine,NC,1596609320,-21.55,167.88,19.48,70,78,2.1
337,ilulissat,GL,1596609321,69.22,-51.1,6.0,87,98,3.6
338,podporozhye,RU,1596609322,60.91,34.17,15.67,95,100,4.89
339,singaraja,ID,1596609323,-8.11,115.09,27.3,67,42,0.12
340,nurota,UZ,1596609324,40.56,65.69,31.0,29,0,6.2
341,geraldton,AU,1596609067,-28.77,114.6,18.0,63,75,6.7
342,avera,US,1596609325,33.19,-82.53,23.0,69,75,0.84
343,nara,JP,1596609326,34.69,135.8,39.44,55,75,5.7
344,baker city,US,1596609326,30.59,-91.17,25.56,83,1,0.79
345,chicama,PE,1596609326,-7.84,-79.15,14.71,84,14,1.86
346,meulaboh,ID,1596609327,4.14,96.13,30.02,61,100,2.07
347,nago,JP,1596609328,26.59,127.98,33.0,59,20,5.1
348,snezhnogorsk,RU,1596609329,69.19,33.25,18.0,68,89,2.0
349,pacific grove,US,1596609329,38.48,-90.74,17.22,96,83,0.69
350,jibuti,DJ,1596609330,11.5,42.5,35.0,36,1,5.7
351,yar-sale,RU,1596609330,66.83,70.83,21.79,41,0,5.33
352,izhma,RU,1596609330,65.01,53.91,21.51,56,60,3.93
353,akdepe,TM,1596609338,42.06,59.38,27.0,34,0,3.1
354,togitsu,JP,1596609340,32.83,129.85,32.0,55,40,3.1
355,alofi,NU,1596609340,-19.06,-169.92,23.0,94,9,1.0
356,acajutla,SV,1596609341,13.59,-89.83,20.56,100,100,0.89
357,aklavik,CA,1596609342,68.22,-135.01,12.0,76,75,4.6
358,kattivakkam,IN,1596609342,13.22,80.32,31.0,58,75,6.7
359,broome,US,1596609343,42.25,-75.83,17.78,100,40,2.1
360,hervey bay,US,1596609345,33.5,-93.78,22.0,73,1,2.35
361,grootfontein,NA,1596609345,-19.57,18.12,16.82,28,0,1.14
362,yatou,CN,1596609348,37.15,122.38,24.53,93,100,6.7
363,jacareacanga,BR,1596609355,-6.22,-57.75,23.34,59,35,0.78
364,ota,JP,1596609225,36.3,139.37,36.67,42,100,1.79
365,zhigansk,RU,1596609356,66.77,123.37,23.72,39,0,4.64
366,krasnoselkup,RU,1596609357,65.7,82.47,20.27,60,98,5.61
367,port-gentil,GA,1596609357,-0.72,8.78,25.0,88,75,3.15
368,coahuayana,MX,1596609358,18.73,-103.68,25.86,87,34,1.2
369,gornopravdinsk,RU,1596609359,60.05,69.9,22.97,74,80,3.32
370,puri,IN,1596609359,19.8,85.85,27.0,100,90,3.1
371,pingliang,CN,1596609359,35.54,106.69,26.83,62,100,1.55
372,skogn,NO,1596609375,63.7,11.2,14.0,76,21,3.1
373,malatya,TR,1596609375,38.5,38.0,29.0,23,0,2.1
374,saint-augustin,CA,1596609375,51.23,-58.65,11.79,83,0,1.1
375,bandarbeyla,SO,1596609375,9.49,50.81,32.0,43,100,15.22
376,sorland,NO,1596609376,67.67,12.69,13.0,93,75,3.6
377,valkeakoski,FI,1596609376,61.26,24.03,18.33,77,20,4.1
378,jalu,LY,1596609377,29.03,21.55,30.51,29,0,3.73
379,dossor,KZ,1596609377,47.53,52.98,26.29,37,85,7.06
380,coquimbo,CL,1596609377,-29.95,-71.34,11.0,87,0,3.1
381,waipawa,NZ,1596609377,-41.41,175.52,13.0,82,96,4.1
382,rawson,AR,1596609379,-43.3,-65.1,9.43,60,96,7.5
383,beira,MZ,1596609380,-19.84,34.84,20.0,88,0,3.6
384,inuvik,CA,1596609381,68.35,-133.72,12.0,76,75,4.6
385,kenai,US,1596609383,60.55,-151.26,18.0,63,1,2.1
386,paragominas,BR,1596609383,-2.97,-47.48,21.76,75,40,0.63
387,eureka,US,1596609188,40.8,-124.16,15.56,100,100,2.24
388,songjianghe,CN,1596609385,42.19,127.48,24.65,79,100,1.48
389,vila velha,PT,1596609385,42.03,-8.16,15.56,81,29,0.85
390,katobu,ID,1596609386,-4.94,122.53,29.46,57,49,0.12
391,strezhevoy,RU,1596609388,60.73,77.59,31.0,45,0,3.0
392,nazca,PE,1596609389,-14.83,-74.95,13.12,67,0,1.22
393,aldan,RU,1596609389,58.6,125.39,22.59,41,60,5.11
394,lompoc,US,1596609389,34.64,-120.46,14.0,93,95,2.6
395,ulkan,RU,1596609390,57.24,107.32,28.11,28,0,2.39
396,djenne,ML,1596609390,13.91,-4.55,24.62,77,75,6.05
397,hurghada,EG,1596609187,27.26,33.81,34.0,24,0,4.1
398,vila franca do campo,PT,1596609390,42.03,-8.16,15.56,81,29,0.85
399,dapdap,PH,1596609391,12.06,125.49,29.5,72,62,3.78
400,vilyuysk,RU,1596609391,63.76,121.62,25.49,37,100,1.03
401,ugrinovci,RS,1596609392,44.88,20.19,19.0,88,75,5.1
402,lebedinyy,RU,1596609392,58.52,125.52,21.36,43,79,6.04
403,bathsheba,BB,1596609392,13.22,-59.52,28.0,74,40,7.7
404,tarsus,TR,1596609392,36.92,34.88,31.0,66,40,3.1
405,kendari,ID,1596609378,-3.94,122.5,28.83,63,26,3.34
406,bud,US,1596609336,39.45,-86.18,14.44,97,0,1.42
407,sipoo,FI,1596609393,60.38,25.27,15.56,82,20,3.6
408,myitkyina,MM,1596609393,25.38,97.4,37.55,45,9,1.7
409,kingaroy,AU,1596609393,-26.53,151.83,24.0,27,17,5.1
410,macedo de cavaleiros,BR,1596609394,-14.36,-48.44,14.16,59,0,2.59
411,shingu,JP,1596609394,33.73,135.98,29.0,83,40,2.6
412,contamana,PE,1596609394,-7.33,-75.02,20.85,74,0,0.85
413,maragogi,BR,1596609270,-9.01,-35.22,22.76,83,100,6.33
414,nabire,ID,1596609395,-3.37,135.48,29.73,65,64,1.54
415,taltal,CL,1596609395,-25.4,-70.48,11.07,81,32,1.24
416,ulaangom,MN,1596609395,49.98,92.07,21.22,49,99,1.69
417,berlevag,NO,1596609396,70.86,29.09,11.0,87,75,2.6
418,iquitos,PE,1596609397,-3.75,-73.25,22.05,83,5,0.41
419,san quintin,ML,1596609305,13.3,-4.9,23.07,84,85,6.17
420,grinnell,US,1596609397,41.74,-92.72,15.0,77,1,0.81
421,northam,GB,1596609398,51.03,-4.22,18.89,92,20,4.47
422,barinas,VE,1596609398,8.62,-70.21,22.06,91,26,0.96
423,wilmington,US,1596609234,34.23,-77.94,26.11,88,40,2.11
424,harper,LR,1596609399,4.38,-7.72,22.13,79,8,2.17
425,chulym,RU,1596609399,55.1,80.96,25.6,50,0,5.31
426,kilindoni,TZ,1596609399,-7.91,39.67,24.83,78,100,6.14
427,nyirabrany,HU,1596609399,47.55,22.02,20.0,94,75,3.1
428,koumac,NC,1596609401,-20.57,164.28,21.23,66,71,1.09
429,minsk,BY,1596609117,53.9,27.57,20.0,64,100,3.0
430,tlacotepec,MX,1596609401,20.07,-97.87,17.36,89,55,1.2
431,floro,NO,1596609218,61.6,5.03,12.0,81,75,10.3
432,azle,US,1596609402,32.9,-97.55,29.0,42,46,4.1
433,socuellamos,ES,1596609119,39.29,-2.79,21.11,69,0,0.45
434,saint-cyr-sur-loire,FR,1596609402,47.4,0.67,15.0,72,0,2.6
435,kovdor,RU,1596609183,67.57,30.48,14.8,77,99,2.69
436,itarema,BR,1596609403,-2.92,-39.92,24.81,68,38,7.44
437,moundsville,US,1596609403,39.92,-80.74,18.0,93,40,2.6
438,nizhniy lomov,RU,1596609408,45.39,39.24,26.67,41,0,5.0
439,korhogo,CI,1596609409,9.45,-5.63,19.88,90,35,2.59
440,santa rosa,PH,1596609111,17.49,120.43,30.95,67,100,2.37
441,wisconsin rapids,US,1596609370,44.5,-90.0,11.0,87,1,2.07
442,malabo,GQ,1596609130,3.75,8.78,24.0,100,20,3.1
443,pitangui,BR,1596609411,-19.68,-44.89,10.92,88,0,1.87
444,nuuk,GL,1596609147,64.18,-51.72,6.0,100,100,1.5
445,marang,MY,1596609411,5.21,103.21,32.0,75,20,2.1
446,portland,US,1596609239,45.52,-122.68,23.0,64,1,3.1
447,awjilah,LY,1596609412,29.11,21.29,30.72,28,0,3.85
448,neath,GB,1596609412,51.66,-3.8,18.89,93,70,0.45
449,novaya ladoga,RU,1596609412,55.92,38.33,22.0,64,100,2.0
450,makakilo city,US,1596609400,21.35,-158.09,27.0,61,1,3.1
451,husavik,IS,1596609413,66.04,-17.34,11.0,76,90,1.5
452,novyy yarychiv,RU,1596609413,45.01,38.98,26.67,41,0,5.0
453,hualmay,PE,1596609413,-11.1,-77.61,14.26,86,48,3.8
454,mul,IN,1596609420,20.07,79.67,30.66,70,100,1.54
455,ormara,PK,1596609421,25.21,64.64,29.48,77,61,3.04
456,moerai,PF,1596609421,-22.43,-151.33,22.02,68,7,4.6
457,gijon,ES,1596609422,43.54,-5.66,17.22,76,100,0.72
458,yumen,CN,1596609361,40.28,97.2,33.95,21,44,6.0
459,tchollire,CM,1596609423,8.4,14.17,23.27,83,60,2.05
460,hay river,GB,1596609423,52.07,-3.13,18.33,87,61,0.45
461,sibolga,ID,1596609424,1.74,98.78,30.17,58,100,2.28
462,kichera,RU,1596609425,55.94,110.1,25.81,38,78,1.29
463,west lafayette,US,1596609426,31.8,-97.09,28.0,58,1,2.6
464,hobyo,SO,1596609426,5.35,48.53,28.78,58,56,10.99
465,palmer,US,1596609427,42.16,-72.33,21.67,83,90,2.6
466,port macquarie,CD,1596609427,-7.03,29.76,23.69,56,92,2.87
467,ullal,IN,1596609427,12.8,74.85,26.0,83,90,5.1
468,machico,PT,1596609428,32.7,-16.77,22.0,73,40,2.6
469,nogliki,RU,1596609428,51.83,143.17,10.93,91,100,3.44
470,egvekinot,RU,1596609428,66.32,-179.17,7.32,85,100,2.59
471,sweetwater,US,1596609430,25.76,-80.37,29.44,94,75,3.1
472,santa cruz do sul,PH,1596609431,17.49,120.43,30.95,67,100,2.37
473,tucuman,AR,1596609431,-26.82,-65.22,19.0,59,0,3.6
474,charyshskoye,RU,1596609432,51.4,83.56,24.6,54,0,5.05
475,olafsvik,IS,1596609433,64.89,-23.71,9.56,91,100,7.47
476,bouna,CI,1596609433,9.27,-3.0,20.04,87,0,2.89
477,pyu,MM,1596609457,18.48,96.43,25.57,94,100,4.95
478,port keats,CD,1596609427,-7.03,29.76,23.69,56,92,2.87
479,katherine,AU,1596609459,-14.47,132.27,32.0,31,49,2.6
480,ballina,AU,1596609459,-28.87,153.57,25.0,49,75,5.1
481,lang son,AT,1596609459,46.84,15.5,17.22,59,75,4.6
482,rasulnagar,PK,1596609370,32.33,73.78,36.0,56,0,3.1
483,malanje,AO,1596609462,-9.54,16.34,17.88,71,54,2.03
484,zhangye,CN,1596609462,38.93,100.45,34.75,22,100,1.83
485,axim,GH,1596609462,4.87,-2.24,22.39,82,54,2.64
486,teguise,ES,1596609462,29.06,-13.56,22.0,73,40,6.7
487,oranjemund,NA,1596609462,-28.55,16.43,11.68,68,0,8.57
488,aksu,CN,1596609463,41.12,80.26,35.0,14,42,1.46
489,whitehorse,CA,1596609390,60.72,-135.05,14.0,58,75,3.6
490,havelock,US,1596609463,34.88,-76.9,27.22,88,1,2.1
491,manavalakurichi,IN,1596609463,8.13,77.3,30.0,79,75,4.1
492,maunabo,PR,1596609352,18.01,-65.9,26.67,90,100,4.6
493,chumikan,RU,1596609465,54.72,135.31,13.83,75,100,7.49
494,sergeyevka,KZ,1596609465,53.88,67.42,26.72,52,0,6.1
495,muriwai beach,NZ,1596609467,-36.83,174.44,13.33,86,100,1.79
496,kathmandu,NP,1596609395,27.72,85.32,28.0,74,40,1.0
497,at-bashi,KG,1596609469,41.17,75.81,22.46,26,100,0.57
498,sisimiut,GL,1596609469,66.94,-53.67,6.6,83,100,2.47
499,peterhead,GB,1596609493,57.51,-1.8,16.0,82,100,2.6
500,karpogory,RU,1596609494,64.0,44.45,18.68,80,100,3.49
501,bikapur,IN,1596609496,26.6,82.13,34.69,60,35,7.33
502,udalguri,IN,1596609496,26.77,92.13,35.48,60,8,4.63
503,basco,PH,1596609496,20.45,121.97,29.34,80,100,6.18
504,grand river south east,US,1596609496,38.88,-109.5,28.0,12,1,1.5
505,dasuya,IN,1596609497,31.82,75.66,39.33,34,0,2.55
506,preobrazheniye,RU,1596609498,42.9,133.91,21.64,82,100,2.02
507,vostok,RU,1596609499,46.49,135.88,21.38,92,23,2.21
508,cassilandia,BR,1596609500,-19.11,-51.73,14.99,49,0,1.23
509,sao felix do xingu,IN,1596609329,20.51,76.21,29.1,72,71,4.28
510,jiazi,CN,1596609501,22.88,116.07,28.09,84,100,3.04
511,margate,GB,1596609501,51.38,1.39,18.89,72,0,1.79
512,komsomolskiy,UZ,1596609501,40.43,71.72,33.0,17,0,2.1
513,mirnyy,RU,1596609503,62.54,113.96,27.0,24,100,5.0
514,gambiran,ID,1596609504,-6.8,111.5,32.38,48,14,3.21
515,ola,RU,1596609504,59.58,151.28,18.89,50,100,3.7
516,chateaudun,FR,1596609505,48.08,1.33,15.0,67,0,1.99
517,basa,ES,1596609505,37.41,-2.76,21.11,85,0,0.91
518,kon tum,CI,1596609505,5.22,-3.39,22.0,94,20,1.5
